[{"id": "_C2rFjlRsKsMawQp8WTjiA", "alias": "the-hyderabad-indian-grill-minneapolis-minneapolis-2", "name": "The Hyderabad Indian Grill - Minneapolis", "image_url": "https://s3-media1.fl.yelpcdn.com/bphoto/DNkQau3gdBW2soputZ15aA/o.jpg", "is_closed": false, "url": "https://www.yelp.com/biz/the-hyderabad-indian-grill-minneapolis-minneapolis-2?adjust_creative=Qauz7cdm5F8D_pDp7A48cQ&utm_campaign=yelp_api_v3&utm_medium=api_v3_business_search&utm_source=Qauz7cdm5F8D_pDp7A48cQ", "review_count": 36, "categories": [{"alias": "indpak", "title": "Indian"}], "rating": 4.0, "coordinates": {"latitude": 45.064837, "longitude": -93.2490113}, "transactions": ["delivery", "pickup"], "location": {"address1": "765 53rd Ave NE", "address2": null, "address3": "", "city": "Minneapolis", "zip_code": "55421", "country": "US", "state": "MN", "display_address": ["765 53rd Ave NE", "Minneapolis, MN 55421"]}, "phone": "+17636571047", "display_phone": "(763) 657-1047", "distance": 11506.028102081678}, {"id": "uETQZ6X9HAGPzozGgqjtiQ", "alias": "gorkha-palace-minneapolis", "name": "Gorkha Palace", "image_url": "https://s3-media4.fl.yelpcdn.com/bphoto/NCJvv7NSxd4sA7y-1XhJug/o.jpg", "is_closed": false, "url": "https://www.yelp.com/biz/gorkha-palace-minneapolis?adjust_creative=Qauz7cdm5F8D_pDp7A48cQ&utm_campaign=yelp_api_v3&utm_medium=api_v3_business_search&utm_source=Qauz7cdm5F8D_pDp7A48cQ", "review_count": 444, "categories": [{"alias": "himalayan", "title": "Himalayan/Nepalese"}, {"alias": "indpak", "title": "Indian"}], "rating": 4.5, "coordinates": {"latitude": 44.989277, "longitude": -93.255079}, "transactions": ["delivery", "pickup"], "price": "$$", "location": {"address1": "23 4th St NE", "address2": "", "address3": "", "city": "Minneapolis", "zip_code": "55414", "country": "US", "state": "MN", "display_address": ["23 4th St NE", "Minneapolis, MN 55414"]}, "phone": "+16128863451", "display_phone": "(612) 886-3451", "distance": 3829.046150061794}, {"id": "zu4zzewGmBYg6z_3vG1xFQ", "alias": "godavari-truly-south-indian-restaurant-eden-prairie", "name": "Godavari Truly South Indian Restaurant", "image_url": "https://s3-media1.fl.yelpcdn.com/bphoto/t-al8g1P1tVWvwgCh-fmew/o.jpg", "is_closed": false, "url": "https://www.yelp.com/biz/godavari-truly-south-indian-restaurant-eden-prairie?adjust_creative=Qauz7cdm5F8D_pDp7A48cQ&utm_campaign=yelp_api_v3&utm_medium=api_v3_business_search&utm_source=Qauz7cdm5F8D_pDp7A48cQ", "review_count": 41, "categories": [{"alias": "indpak", "title": "Indian"}], "rating": 4.0, "coordinates": {"latitude": 44.851644, "longitude": -93.429161}, "transactions": ["delivery", "pickup"], "location": {"address1": "566 Prairie Center Dr", "address2": null, "address3": "", "city": "Eden Prairie", "zip_code": "55344", "country": "US", "state": "MN", "display_address": ["566 Prairie Center Dr", "Eden Prairie, MN 55344"]}, "phone": "+19529418242", "display_phone": "(952) 941-8242", "distance": 16726.755905397706}, {"id": "EETP-7tP_eQf7JsK6D3hig", "alias": "india-palace-uptown-minneapolis-3", "name": "India Palace Uptown", "image_url": "https://s3-media2.fl.yelpcdn.com/bphoto/oa54UCh4m6woLWAH2YdbeA/o.jpg", "is_closed": false, "url": "https://www.yelp.com/biz/india-palace-uptown-minneapolis-3?adjust_creative=Qauz7cdm5F8D_pDp7A48cQ&utm_campaign=yelp_api_v3&utm_medium=api_v3_business_search&utm_source=Qauz7cdm5F8D_pDp7A48cQ", "review_count": 191, "categories": [{"alias": "indpak", "title": "Indian"}], "rating": 4.0, "coordinates": {"latitude": 44.956095, "longitude": -93.2966238}, "transactions": ["delivery", "pickup"], "price": "$$", "location": {"address1": "2546 Hennepin Ave S", "address2": "", "address3": "", "city": "Minneapolis", "zip_code": "55405", "country": "US", "state": "MN", "display_address": ["2546 Hennepin Ave S", "Minneapolis, MN 55405"]}, "phone": "+16123775000", "display_phone": "(612) 377-5000", "distance": 1178.2576555510132}, {"id": "E8wLXmYBg8Af4lEoX4K7dg", "alias": "tamarind-indian-cuisine-edina", "name": "Tamarind Indian Cuisine", "image_url": "https://s3-media3.fl.yelpcdn.com/bphoto/aQnrOyw8ZySIYE2Jewdcsw/o.jpg", "is_closed": false, "url": "https://www.yelp.com/biz/tamarind-indian-cuisine-edina?adjust_creative=Qauz7cdm5F8D_pDp7A48cQ&utm_campaign=yelp_api_v3&utm_medium=api_v3_business_search&utm_source=Qauz7cdm5F8D_pDp7A48cQ", "review_count": 42, "categories": [{"alias": "indpak", "title": "Indian"}], "rating": 4.5, "coordinates": {"latitude": 44.8700388, "longitude": -93.3280575}, "transactions": ["delivery", "pickup"], "price": "$$", "location": {"address1": "3875 Gallagher Dr", "address2": null, "address3": "", "city": "Edina", "zip_code": "55435", "country": "US", "state": "MN", "display_address": ["3875 Gallagher Dr", "Edina, MN 55435"]}, "phone": "+19526817735", "display_phone": "(952) 681-7735", "distance": 11034.895687192633}, {"id": "NAw2f_bmFc2Ric2lVs2QBg", "alias": "bay-leaf-indian-cuisine-eden-prairie-eden-prairie", "name": "Bay Leaf Indian Cuisine - Eden Prairie", "image_url": "https://s3-media2.fl.yelpcdn.com/bphoto/sgCzDJ626LPhU1-xVzpovw/o.jpg", "is_closed": false, "url": "https://www.yelp.com/biz/bay-leaf-indian-cuisine-eden-prairie-eden-prairie?adjust_creative=Qauz7cdm5F8D_pDp7A48cQ&utm_campaign=yelp_api_v3&utm_medium=api_v3_business_search&utm_source=Qauz7cdm5F8D_pDp7A48cQ", "review_count": 337, "categories": [{"alias": "indpak", "title": "Indian"}], "rating": 4.5, "coordinates": {"latitude": 44.8881602491156, "longitude": -93.4178214125842}, "transactions": ["delivery", "pickup"], "price": "$$", "location": {"address1": "6403 City W Pkwy", "address2": "Ste A1", "address3": "", "city": "Eden Prairie", "zip_code": "55344", "country": "US", "state": "MN", "display_address": ["6403 City W Pkwy", "Ste A1", "Eden Prairie, MN 55344"]}, "phone": "+19524260215", "display_phone": "(952) 426-0215", "distance": 13218.931834020046}, {"id": "nAbEBGOVUVSDf3mXbo621A", "alias": "namaste-india-grill-and-brewhouse-arden-hills", "name": "Namaste India Grill & Brewhouse", "image_url": "https://s3-media4.fl.yelpcdn.com/bphoto/Hn_p1EcKh8mmCqsOm82UiA/o.jpg", "is_closed": false, "url": "https://www.yelp.com/biz/namaste-india-grill-and-brewhouse-arden-hills?adjust_creative=Qauz7cdm5F8D_pDp7A48cQ&utm_campaign=yelp_api_v3&utm_medium=api_v3_business_search&utm_source=Qauz7cdm5F8D_pDp7A48cQ", "review_count": 124, "categories": [{"alias": "indpak", "title": "Indian"}, {"alias": "breweries", "title": "Breweries"}], "rating": 4.5, "coordinates": {"latitude": 45.051603, "longitude": -93.148454}, "transactions": ["delivery", "pickup"], "price": "$$", "location": {"address1": "3673 Lexington Ave N", "address2": "Ste L", "address3": "", "city": "Arden Hills", "zip_code": "55126", "country": "US", "state": "MN", "display_address": ["3673 Lexington Ave N", "Ste L", "Arden Hills, MN 55126"]}, "phone": "+16513306522", "display_phone": "(651) 330-6522", "distance": 14698.73007336381}, {"id": "5S6yz3rFfTk9XRQGigzi-Q", "alias": "india-house-saint-paul", "name": "India House", "image_url": "https://s3-media4.fl.yelpcdn.com/bphoto/2DrdP-4wlTz-Ixz0uJgQ4w/o.jpg", "is_closed": false, "url": "https://www.yelp.com/biz/india-house-saint-paul?adjust_creative=Qauz7cdm5F8D_pDp7A48cQ&utm_campaign=yelp_api_v3&utm_medium=api_v3_business_search&utm_source=Qauz7cdm5F8D_pDp7A48cQ", "review_count": 218, "categories": [{"alias": "indpak", "title": "Indian"}], "rating": 4.0, "coordinates": {"latitude": 44.93963, "longitude": -93.13213}, "transactions": ["delivery", "pickup"], "price": "$$", "location": {"address1": "758 Grand Ave", "address2": "", "address3": "", "city": "Saint Paul", "zip_code": "55105", "country": "US", "state": "MN", "display_address": ["758 Grand Ave", "Saint Paul, MN 55105"]}, "phone": "+16512939124", "display_phone": "(651) 293-9124", "distance": 12787.987396927832}, {"id": "YMZS-m2VrbJ3zW93i6umig", "alias": "darbar-india-grill-minneapolis", "name": "Darbar India Grill", "image_url": "https://s3-media4.fl.yelpcdn.com/bphoto/9lfn3ekffxGqW-l5JVqzcA/o.jpg", "is_closed": false, "url": "https://www.yelp.com/biz/darbar-india-grill-minneapolis?adjust_creative=Qauz7cdm5F8D_pDp7A48cQ&utm_campaign=yelp_api_v3&utm_medium=api_v3_business_search&utm_source=Qauz7cdm5F8D_pDp7A48cQ", "review_count": 306, "categories": [{"alias": "indpak", "title": "Indian"}], "rating": 4.0, "coordinates": {"latitude": 44.948343, "longitude": -93.2947493}, "transactions": ["delivery", "pickup"], "price": "$$", "location": {"address1": "1221 W Lake St", "address2": "Ste 106", "address3": "", "city": "Minneapolis", "zip_code": "55408", "country": "US", "state": "MN", "display_address": ["1221 W Lake St", "Ste 106", "Minneapolis, MN 55408"]}, "phone": "+16128223300", "display_phone": "(612) 822-3300", "distance": 1947.390341895867}, {"id": "ZesuvK3U-6ZrMx8GK4rQGw", "alias": "himalayan-restaurant-minneapolis-2", "name": "Himalayan Restaurant", "image_url": "https://s3-media3.fl.yelpcdn.com/bphoto/jQDhkYALxKlQN4yKqNGxlg/o.jpg", "is_closed": false, "url": "https://www.yelp.com/biz/himalayan-restaurant-minneapolis-2?adjust_creative=Qauz7cdm5F8D_pDp7A48cQ&utm_campaign=yelp_api_v3&utm_medium=api_v3_business_search&utm_source=Qauz7cdm5F8D_pDp7A48cQ", "review_count": 276, "categories": [{"alias": "himalayan", "title": "Himalayan/Nepalese"}, {"alias": "indpak", "title": "Indian"}, {"alias": "salad", "title": "Salad"}], "rating": 4.5, "coordinates": {"latitude": 44.94862, "longitude": -93.22953}, "transactions": ["delivery"], "price": "$$", "location": {"address1": "2910 E Lake St", "address2": "", "address3": "", "city": "Minneapolis", "zip_code": "55406", "country": "US", "state": "MN", "display_address": ["2910 E Lake St", "Minneapolis, MN 55406"]}, "phone": "+16123320880", "display_phone": "(612) 332-0880", "distance": 5157.045101659812}, {"id": "6_i3VXlTK6J0lXEI9xqdSg", "alias": "spice-and-tonic-indian-cuisine-and-bar-minneapolis", "name": "Spice & Tonic - Indian Cuisine & Bar", "image_url": "https://s3-media1.fl.yelpcdn.com/bphoto/aNlSieY4EY1zAWfB9Ru3Tg/o.jpg", "is_closed": false, "url": "https://www.yelp.com/biz/spice-and-tonic-indian-cuisine-and-bar-minneapolis?adjust_creative=Qauz7cdm5F8D_pDp7A48cQ&utm_campaign=yelp_api_v3&utm_medium=api_v3_business_search&utm_source=Qauz7cdm5F8D_pDp7A48cQ", "review_count": 19, "categories": [{"alias": "indpak", "title": "Indian"}, {"alias": "bars", "title": "Bars"}], "rating": 5.0, "coordinates": {"latitude": 44.97614, "longitude": -93.25598}, "transactions": ["delivery", "pickup"], "price": "$$", "location": {"address1": "903 S Washington Ave", "address2": null, "address3": "", "city": "Minneapolis", "zip_code": "55415", "country": "US", "state": "MN", "display_address": ["903 S Washington Ave", "Minneapolis, MN 55415"]}, "phone": "+16123339020", "display_phone": "(612) 333-9020", "distance": 2967.3783915225818}, {"id": "TXnblgeYzyMjBjOHaO2iqw", "alias": "kadai-indian-kitchen-minneapolis-2", "name": "Kadai Indian Kitchen", "image_url": "https://s3-media1.fl.yelpcdn.com/bphoto/uMnOd2zrVuX_2-z2zF_7Gw/o.jpg", "is_closed": false, "url": "https://www.yelp.com/biz/kadai-indian-kitchen-minneapolis-2?adjust_creative=Qauz7cdm5F8D_pDp7A48cQ&utm_campaign=yelp_api_v3&utm_medium=api_v3_business_search&utm_source=Qauz7cdm5F8D_pDp7A48cQ", "review_count": 52, "categories": [{"alias": "indpak", "title": "Indian"}], "rating": 3.5, "coordinates": {"latitude": 44.9768295, "longitude": -93.2699509}, "transactions": ["delivery", "pickup"], "price": "$$", "location": {"address1": "601 S Marquette Ave", "address2": "Ste 200", "address3": "", "city": "Minneapolis", "zip_code": "55402", "country": "US", "state": "MN", "display_address": ["601 S Marquette Ave", "Ste 200", "Minneapolis, MN 55402"]}, "phone": "+12564722545", "display_phone": "(256) 472-2545", "distance": 2043.0481554979128}, {"id": "pF-dsYw1gJqtg4Rytbm6dg", "alias": "kumars-minneapolis-apple-valley", "name": "Kumar's Minneapolis", "image_url": "https://s3-media3.fl.yelpcdn.com/bphoto/kUgeM7vSGxfuA4JnAT5xRA/o.jpg", "is_closed": false, "url": "https://www.yelp.com/biz/kumars-minneapolis-apple-valley?adjust_creative=Qauz7cdm5F8D_pDp7A48cQ&utm_campaign=yelp_api_v3&utm_medium=api_v3_business_search&utm_source=Qauz7cdm5F8D_pDp7A48cQ", "review_count": 71, "categories": [{"alias": "indpak", "title": "Indian"}], "rating": 4.0, "coordinates": {"latitude": 44.733602, "longitude": -93.221894}, "transactions": ["delivery", "pickup"], "price": "$$", "location": {"address1": "14871 Granada Ave", "address2": null, "address3": "", "city": "Apple Valley", "zip_code": "55124", "country": "US", "state": "MN", "display_address": ["14871 Granada Ave", "Apple Valley, MN 55124"]}, "phone": "+16123145148", "display_phone": "(612) 314-5148", "distance": 26339.823166835507}, {"id": "DkEza4eYThvhfnj_oPBSPw", "alias": "gandhi-mahal-minneapolis", "name": "Gandhi Mahal", "image_url": "https://s3-media2.fl.yelpcdn.com/bphoto/GoywMuzsu7_zPz3k1XIvyA/o.jpg", "is_closed": false, "url": "https://www.yelp.com/biz/gandhi-mahal-minneapolis?adjust_creative=Qauz7cdm5F8D_pDp7A48cQ&utm_campaign=yelp_api_v3&utm_medium=api_v3_business_search&utm_source=Qauz7cdm5F8D_pDp7A48cQ", "review_count": 347, "categories": [{"alias": "indpak", "title": "Indian"}], "rating": 4.0, "coordinates": {"latitude": 44.96249, "longitude": -93.22714}, "transactions": ["delivery", "pickup"], "price": "$$", "location": {"address1": "3025 E Franklin Ave", "address2": "", "address3": "", "city": "Minneapolis", "zip_code": "55406", "country": "US", "state": "MN", "display_address": ["3025 E Franklin Ave", "Minneapolis, MN 55406"]}, "phone": "+16127295222", "display_phone": "(612) 729-5222", "distance": 4986.723954049043}, {"id": "89QyJPRawF_UrtN7UvLdzw", "alias": "dancing-ganesha-minneapolis", "name": "Dancing Ganesha", "image_url": "https://s3-media1.fl.yelpcdn.com/bphoto/SiLZ3jVNvZky72w7X8ladQ/o.jpg", "is_closed": false, "url": "https://www.yelp.com/biz/dancing-ganesha-minneapolis?adjust_creative=Qauz7cdm5F8D_pDp7A48cQ&utm_campaign=yelp_api_v3&utm_medium=api_v3_business_search&utm_source=Qauz7cdm5F8D_pDp7A48cQ", "review_count": 359, "categories": [{"alias": "indpak", "title": "Indian"}], "rating": 3.5, "coordinates": {"latitude": 44.97427, "longitude": -93.27892}, "transactions": ["delivery", "pickup"], "price": "$$", "location": {"address1": "1100 Harmon Pl", "address2": "", "address3": "", "city": "Minneapolis", "zip_code": "55403", "country": "US", "state": "MN", "display_address": ["1100 Harmon Pl", "Minneapolis, MN 55403"]}, "phone": "+16123381877", "display_phone": "(612) 338-1877", "distance": 1339.663846282321}, {"id": "eUVB97WxukntBfYAMz8Qzw", "alias": "india-palace-roseville", "name": "India Palace", "image_url": "https://s3-media2.fl.yelpcdn.com/bphoto/usRjPmx4HR4gNJk05YE53Q/o.jpg", "is_closed": false, "url": "https://www.yelp.com/biz/india-palace-roseville?adjust_creative=Qauz7cdm5F8D_pDp7A48cQ&utm_campaign=yelp_api_v3&utm_medium=api_v3_business_search&utm_source=Qauz7cdm5F8D_pDp7A48cQ", "review_count": 241, "categories": [{"alias": "indpak", "title": "Indian"}], "rating": 4.0, "coordinates": {"latitude": 45.01879, "longitude": -93.18658}, "transactions": ["delivery", "pickup"], "price": "$$", "location": {"address1": "2570 Cleveland Ave N", "address2": "", "address3": "", "city": "Roseville", "zip_code": "55113", "country": "US", "state": "MN", "display_address": ["2570 Cleveland Ave N", "Roseville, MN 55113"]}, "phone": "+16516311222", "display_phone": "(651) 631-1222", "distance": 10076.331046143518}, {"id": "nt3t57ZVClPy37nQjmOvEQ", "alias": "the-hyderabad-indian-grill-bloomington-3", "name": "The Hyderabad Indian Grill", "image_url": "https://s3-media2.fl.yelpcdn.com/bphoto/HHfvCKu0ug_CHvd7av904Q/o.jpg", "is_closed": false, "url": "https://www.yelp.com/biz/the-hyderabad-indian-grill-bloomington-3?adjust_creative=Qauz7cdm5F8D_pDp7A48cQ&utm_campaign=yelp_api_v3&utm_medium=api_v3_business_search&utm_source=Qauz7cdm5F8D_pDp7A48cQ", "review_count": 153, "categories": [{"alias": "indpak", "title": "Indian"}], "rating": 4.0, "coordinates": {"latitude": 44.8583699, "longitude": -93.3066769}, "transactions": ["delivery", "pickup"], "price": "$$", "location": {"address1": "2137 W 80th 1/2 St", "address2": "Ste 1", "address3": "", "city": "Bloomington", "zip_code": "55431", "country": "US", "state": "MN", "display_address": ["2137 W 80th 1/2 St", "Ste 1", "Bloomington, MN 55431"]}, "phone": "+19525008453", "display_phone": "(952) 500-8453", "distance": 12081.078830910525}, {"id": "hDIGJVSHrlNSqZ4vgs7UCg", "alias": "best-of-india-indian-restaurant-st-louis-park", "name": "Best of India Indian Restaurant", "image_url": "https://s3-media1.fl.yelpcdn.com/bphoto/oRLuKT8lADQym5IUycWvWw/o.jpg", "is_closed": false, "url": "https://www.yelp.com/biz/best-of-india-indian-restaurant-st-louis-park?adjust_creative=Qauz7cdm5F8D_pDp7A48cQ&utm_campaign=yelp_api_v3&utm_medium=api_v3_business_search&utm_source=Qauz7cdm5F8D_pDp7A48cQ", "review_count": 271, "categories": [{"alias": "indpak", "title": "Indian"}], "rating": 4.0, "coordinates": {"latitude": 44.94983, "longitude": -93.38229}, "transactions": ["delivery", "pickup"], "price": "$$", "location": {"address1": "8120 Minnetonka Blvd", "address2": null, "address3": "", "city": "St Louis Park", "zip_code": "55426", "country": "US", "state": "MN", "display_address": ["8120 Minnetonka Blvd", "St Louis Park, MN 55426"]}, "phone": "+19529352320", "display_phone": "(952) 935-2320", "distance": 7488.360235310775}, {"id": "_NNDqkAE_I37bbnZBIzh3w", "alias": "namaste-caf\u00e9-minneapolis-3", "name": "Namaste Caf\u00e9", "image_url": "https://s3-media4.fl.yelpcdn.com/bphoto/e0uqz6sXI0tYgdR0p6TPxg/o.jpg", "is_closed": false, "url": "https://www.yelp.com/biz/namaste-caf%C3%A9-minneapolis-3?adjust_creative=Qauz7cdm5F8D_pDp7A48cQ&utm_campaign=yelp_api_v3&utm_medium=api_v3_business_search&utm_source=Qauz7cdm5F8D_pDp7A48cQ", "review_count": 320, "categories": [{"alias": "indpak", "title": "Indian"}, {"alias": "himalayan", "title": "Himalayan/Nepalese"}], "rating": 3.5, "coordinates": {"latitude": 44.956912, "longitude": -93.29616}, "transactions": ["delivery", "pickup"], "price": "$$", "location": {"address1": "2512 Hennepin Ave", "address2": "", "address3": "", "city": "Minneapolis", "zip_code": "55405", "country": "US", "state": "MN", "display_address": ["2512 Hennepin Ave", "Minneapolis, MN 55405"]}, "phone": "+16128272496", "display_phone": "(612) 827-2496", "distance": 1065.2952318983605}, {"id": "TzIxaP5GvoZFM2ZWn2EixQ", "alias": "malabari-kitchen-minneapolis", "name": "Malabari Kitchen", "image_url": "https://s3-media4.fl.yelpcdn.com/bphoto/2X35qIPgYMafq12Rh4vjXA/o.jpg", "is_closed": false, "url": "https://www.yelp.com/biz/malabari-kitchen-minneapolis?adjust_creative=Qauz7cdm5F8D_pDp7A48cQ&utm_campaign=yelp_api_v3&utm_medium=api_v3_business_search&utm_source=Qauz7cdm5F8D_pDp7A48cQ", "review_count": 143, "categories": [{"alias": "indpak", "title": "Indian"}], "rating": 4.0, "coordinates": {"latitude": 44.96962722782514, "longitude": -93.24748403866991}, "transactions": ["delivery", "pickup"], "price": "$$", "location": {"address1": "414 1/2 Cedar Ave S", "address2": "", "address3": "", "city": "Minneapolis", "zip_code": "55454", "country": "US", "state": "MN", "display_address": ["414 1/2 Cedar Ave S", "Minneapolis, MN 55454"]}, "phone": "+16123616777", "display_phone": "(612) 361-6777", "distance": 3406.4504733030194}, {"id": "TzIxaP5GvoZFM2ZWn2EixQ", "alias": "malabari-kitchen-minneapolis", "name": "Malabari Kitchen", "image_url": "https://s3-media4.fl.yelpcdn.com/bphoto/2X35qIPgYMafq12Rh4vjXA/o.jpg", "is_closed": false, "url": "https://www.yelp.com/biz/malabari-kitchen-minneapolis?adjust_creative=Qauz7cdm5F8D_pDp7A48cQ&utm_campaign=yelp_api_v3&utm_medium=api_v3_business_search&utm_source=Qauz7cdm5F8D_pDp7A48cQ", "review_count": 143, "categories": [{"alias": "indpak", "title": "Indian"}], "rating": 4.0, "coordinates": {"latitude": 44.96962722782514, "longitude": -93.24748403866991}, "transactions": ["delivery", "pickup"], "price": "$$", "location": {"address1": "414 1/2 Cedar Ave S", "address2": "", "address3": "", "city": "Minneapolis", "zip_code": "55454", "country": "US", "state": "MN", "display_address": ["414 1/2 Cedar Ave S", "Minneapolis, MN 55454"]}, "phone": "+16123616777", "display_phone": "(612) 361-6777", "distance": 3406.4504733030194}, {"id": "7gMaBBDPPYllKpF_9hQ0pg", "alias": "dancing-ganesha-st-louis-park", "name": "Dancing Ganesha", "image_url": "https://s3-media3.fl.yelpcdn.com/bphoto/5ivANLBsZ8KLxM97KEcWHQ/o.jpg", "is_closed": false, "url": "https://www.yelp.com/biz/dancing-ganesha-st-louis-park?adjust_creative=Qauz7cdm5F8D_pDp7A48cQ&utm_campaign=yelp_api_v3&utm_medium=api_v3_business_search&utm_source=Qauz7cdm5F8D_pDp7A48cQ", "review_count": 12, "categories": [{"alias": "indpak", "title": "Indian"}], "rating": 4.0, "coordinates": {"latitude": 44.9367965, "longitude": -93.3828398}, "transactions": ["delivery", "pickup"], "location": {"address1": "8120 MN-7", "address2": "", "address3": null, "city": "St. Louis Park", "zip_code": "55426", "country": "US", "state": "MN", "display_address": ["8120 MN-7", "St. Louis Park, MN 55426"]}, "phone": "+19524260210", "display_phone": "(952) 426-0210", "distance": 7947.195891855924}, {"id": "VNA3zKH0h-yHCZ3GcJYKTQ", "alias": "fresh-india-grocery-and-eatery-woodbury", "name": "Fresh India Grocery & Eatery", "image_url": "https://s3-media2.fl.yelpcdn.com/bphoto/2fWJEUoEIgm2t9G633RKdw/o.jpg", "is_closed": false, "url": "https://www.yelp.com/biz/fresh-india-grocery-and-eatery-woodbury?adjust_creative=Qauz7cdm5F8D_pDp7A48cQ&utm_campaign=yelp_api_v3&utm_medium=api_v3_business_search&utm_source=Qauz7cdm5F8D_pDp7A48cQ", "review_count": 21, "categories": [{"alias": "intlgrocery", "title": "International Grocery"}, {"alias": "indpak", "title": "Indian"}], "rating": 5.0, "coordinates": {"latitude": 44.941174240586335, "longitude": -92.91034782193339}, "transactions": ["delivery", "pickup"], "location": {"address1": "441 Commerce Dr", "address2": "", "address3": null, "city": "Woodbury", "zip_code": "55125", "country": "US", "state": "MN", "display_address": ["441 Commerce Dr", "Woodbury, MN 55125"]}, "phone": "", "display_phone": "", "distance": 30029.820672113307}, {"id": "O4yEjYthfXX2ln7rPS14Gg", "alias": "indian-masala-maplewood-2", "name": "Indian Masala", "image_url": "https://s3-media2.fl.yelpcdn.com/bphoto/5bQQjPMujLdm37lvuU6I3g/o.jpg", "is_closed": false, "url": "https://www.yelp.com/biz/indian-masala-maplewood-2?adjust_creative=Qauz7cdm5F8D_pDp7A48cQ&utm_campaign=yelp_api_v3&utm_medium=api_v3_business_search&utm_source=Qauz7cdm5F8D_pDp7A48cQ", "review_count": 150, "categories": [{"alias": "indpak", "title": "Indian"}, {"alias": "buffets", "title": "Buffets"}], "rating": 4.0, "coordinates": {"latitude": 44.9420603567276, "longitude": -92.9849217794881}, "transactions": ["delivery", "pickup"], "price": "$$", "location": {"address1": "27 Century Ave N", "address2": null, "address3": "", "city": "Maplewood", "zip_code": "55119", "country": "US", "state": "MN", "display_address": ["27 Century Ave N", "Maplewood, MN 55119"]}, "phone": "+16515017824", "display_phone": "(651) 501-7824", "distance": 24180.362265810847}, {"id": "j-Ln8ZKQzSXnx3pT9IKlZA", "alias": "aroma-indian-cuisine-bloomington", "name": "Aroma Indian Cuisine", "image_url": "https://s3-media2.fl.yelpcdn.com/bphoto/jKFt0tahHb7Ow8uMsH9PHg/o.jpg", "is_closed": false, "url": "https://www.yelp.com/biz/aroma-indian-cuisine-bloomington?adjust_creative=Qauz7cdm5F8D_pDp7A48cQ&utm_campaign=yelp_api_v3&utm_medium=api_v3_business_search&utm_source=Qauz7cdm5F8D_pDp7A48cQ", "review_count": 57, "categories": [{"alias": "indpak", "title": "Indian"}], "rating": 4.5, "coordinates": {"latitude": 44.824976, "longitude": -93.286496}, "transactions": ["delivery", "pickup"], "location": {"address1": "509 W 98th St", "address2": "", "address3": null, "city": "Bloomington", "zip_code": "55420", "country": "US", "state": "MN", "display_address": ["509 W 98th St", "Bloomington, MN 55420"]}, "phone": "+19524797154", "display_phone": "(952) 479-7154", "distance": 15628.692732580635}, {"id": "ef2nVcs3lCrOFlKWH8ERuQ", "alias": "house-of-curry-rosemount", "name": "House of Curry", "image_url": "https://s3-media2.fl.yelpcdn.com/bphoto/lt75Mr9pwrIDVxAu8BSUlA/o.jpg", "is_closed": false, "url": "https://www.yelp.com/biz/house-of-curry-rosemount?adjust_creative=Qauz7cdm5F8D_pDp7A48cQ&utm_campaign=yelp_api_v3&utm_medium=api_v3_business_search&utm_source=Qauz7cdm5F8D_pDp7A48cQ", "review_count": 101, "categories": [{"alias": "asianfusion", "title": "Asian Fusion"}, {"alias": "srilankan", "title": "Sri Lankan"}, {"alias": "wine_bars", "title": "Wine Bars"}], "rating": 4.5, "coordinates": {"latitude": 44.7306147688573, "longitude": -93.1344236747823}, "transactions": ["delivery", "pickup"], "price": "$$", "location": {"address1": "3420 150th St W", "address2": "Ste 119", "address3": "", "city": "Rosemount", "zip_code": "55068", "country": "US", "state": "MN", "display_address": ["3420 150th St W", "Ste 119", "Rosemount, MN 55068"]}, "phone": "+16513447744", "display_phone": "(651) 344-7744", "distance": 28876.47978166689}, {"id": "ZYiJTOCwGqVqt0vi5Ow1yQ", "alias": "tandoor-maple-grove", "name": "Tandoor", "image_url": "https://s3-media1.fl.yelpcdn.com/bphoto/HjOYWn-i1UKNmxbaAQX4wA/o.jpg", "is_closed": false, "url": "https://www.yelp.com/biz/tandoor-maple-grove?adjust_creative=Qauz7cdm5F8D_pDp7A48cQ&utm_campaign=yelp_api_v3&utm_medium=api_v3_business_search&utm_source=Qauz7cdm5F8D_pDp7A48cQ", "review_count": 57, "categories": [{"alias": "indpak", "title": "Indian"}], "rating": 4.5, "coordinates": {"latitude": 45.134046, "longitude": -93.477697}, "transactions": ["delivery", "pickup"], "price": "$$", "location": {"address1": "15607 Grove Cir N", "address2": "", "address3": "", "city": "Maple Grove", "zip_code": "55369", "country": "US", "state": "MN", "display_address": ["15607 Grove Cir N", "Maple Grove, MN 55369"]}, "phone": "+17638983805", "display_phone": "(763) 898-3805", "distance": 23819.535716749797}, {"id": "1xuldViM-2wgHuAHCLSjpw", "alias": "nawabi-hyderabad-house-biryani-place-minnetonka", "name": "Nawabi Hyderabad House Biryani Place", "image_url": "https://s3-media3.fl.yelpcdn.com/bphoto/qlwNVVeP61Mz4eoSzWBAlg/o.jpg", "is_closed": false, "url": "https://www.yelp.com/biz/nawabi-hyderabad-house-biryani-place-minnetonka?adjust_creative=Qauz7cdm5F8D_pDp7A48cQ&utm_campaign=yelp_api_v3&utm_medium=api_v3_business_search&utm_source=Qauz7cdm5F8D_pDp7A48cQ", "review_count": 50, "categories": [{"alias": "indpak", "title": "Indian"}], "rating": 3.5, "coordinates": {"latitude": 44.9336399, "longitude": -93.42449}, "transactions": ["delivery", "pickup"], "price": "$$", "location": {"address1": "11400 MN-7", "address2": null, "address3": "", "city": "Minnetonka", "zip_code": "55305", "country": "US", "state": "MN", "display_address": ["11400 MN-7", "Minnetonka, MN 55305"]}, "phone": "+19527673311", "display_phone": "(952) 767-3311", "distance": 11141.7248062969}, {"id": "j-PEHL9rz1w0M3d25lD-HA", "alias": "momo-dosa-street-food-minneapolis", "name": "Momo Dosa Street Food", "image_url": "https://s3-media3.fl.yelpcdn.com/bphoto/Ui3b9oMFCwV0ytPQrJED7w/o.jpg", "is_closed": false, "url": "https://www.yelp.com/biz/momo-dosa-street-food-minneapolis?adjust_creative=Qauz7cdm5F8D_pDp7A48cQ&utm_campaign=yelp_api_v3&utm_medium=api_v3_business_search&utm_source=Qauz7cdm5F8D_pDp7A48cQ", "review_count": 10, "categories": [{"alias": "foodstands", "title": "Food Stands"}, {"alias": "indpak", "title": "Indian"}, {"alias": "himalayan", "title": "Himalayan/Nepalese"}], "rating": 4.0, "coordinates": {"latitude": 44.97281958463086, "longitude": -93.21351852785975}, "transactions": ["delivery", "pickup"], "location": {"address1": "501 30th Ave SE", "address2": "", "address3": null, "city": "Minneapolis", "zip_code": "55414", "country": "US", "state": "MN", "display_address": ["501 30th Ave SE", "Minneapolis, MN 55414"]}, "phone": "", "display_phone": "", "distance": 6101.860445111726}, {"id": "YmVO3AvMh7Is12cf7_rf9Q", "alias": "india-bar-and-grill-chaska", "name": "India Bar and Grill", "image_url": "https://s3-media3.fl.yelpcdn.com/bphoto/fqAcKVVh2rPLImnvtsSxwA/o.jpg", "is_closed": false, "url": "https://www.yelp.com/biz/india-bar-and-grill-chaska?adjust_creative=Qauz7cdm5F8D_pDp7A48cQ&utm_campaign=yelp_api_v3&utm_medium=api_v3_business_search&utm_source=Qauz7cdm5F8D_pDp7A48cQ", "review_count": 107, "categories": [{"alias": "indpak", "title": "Indian"}, {"alias": "kebab", "title": "Kebab"}], "rating": 4.5, "coordinates": {"latitude": 44.828786, "longitude": -93.6017344}, "transactions": ["pickup"], "price": "$$", "location": {"address1": "162 Pioneer Trl", "address2": null, "address3": "", "city": "Chaska", "zip_code": "55318", "country": "US", "state": "MN", "display_address": ["162 Pioneer Trl", "Chaska, MN 55318"]}, "phone": "+19524056815", "display_phone": "(952) 405-6815", "distance": 28703.56121541609}, {"id": "RSC3Mjv-UToLOn8cZAQZvQ", "alias": "bawarchi-biryanis-plymouth", "name": "Bawarchi Biryanis", "image_url": "https://s3-media1.fl.yelpcdn.com/bphoto/b4vjgWnKuNsxTFy9RSivSA/o.jpg", "is_closed": false, "url": "https://www.yelp.com/biz/bawarchi-biryanis-plymouth?adjust_creative=Qauz7cdm5F8D_pDp7A48cQ&utm_campaign=yelp_api_v3&utm_medium=api_v3_business_search&utm_source=Qauz7cdm5F8D_pDp7A48cQ", "review_count": 134, "categories": [{"alias": "indpak", "title": "Indian"}], "rating": 3.0, "coordinates": {"latitude": 44.9830076882948, "longitude": -93.4575599845054}, "transactions": ["delivery", "pickup"], "price": "$$", "location": {"address1": "187 Cheshire Ln N", "address2": "Ste 100", "address3": "", "city": "Plymouth", "zip_code": "55441", "country": "US", "state": "MN", "display_address": ["187 Cheshire Ln N", "Ste 100", "Plymouth, MN 55441"]}, "phone": "+17637778140", "display_phone": "(763) 777-8140", "distance": 13290.662259950403}, {"id": "D7FqJSI4NVxp0hc5hot3qg", "alias": "babanis-kurdish-restaurant-saint-paul-2", "name": "Babani's Kurdish Restaurant", "image_url": "https://s3-media2.fl.yelpcdn.com/bphoto/51VpjX65ctPMueU2n-LWew/o.jpg", "is_closed": false, "url": "https://www.yelp.com/biz/babanis-kurdish-restaurant-saint-paul-2?adjust_creative=Qauz7cdm5F8D_pDp7A48cQ&utm_campaign=yelp_api_v3&utm_medium=api_v3_business_search&utm_source=Qauz7cdm5F8D_pDp7A48cQ", "review_count": 131, "categories": [{"alias": "halal", "title": "Halal"}, {"alias": "mideastern", "title": "Middle Eastern"}, {"alias": "kebab", "title": "Kebab"}], "rating": 4.5, "coordinates": {"latitude": 44.9396915, "longitude": -93.0884771}, "transactions": ["delivery"], "price": "$$", "location": {"address1": "32 Fillmore Ave E", "address2": "", "address3": "", "city": "Saint Paul", "zip_code": "55107", "country": "US", "state": "MN", "display_address": ["32 Fillmore Ave E", "Saint Paul, MN 55107"]}, "phone": "+16516029964", "display_phone": "(651) 602-9964", "distance": 16180.12462083799}, {"id": "TLQHff7q6O0Y5awhv-xMow", "alias": "delhi-woks-plymouth", "name": "Delhi Woks", "image_url": "https://s3-media4.fl.yelpcdn.com/bphoto/oG2XYTxD7sYQMgXrIyV4-w/o.jpg", "is_closed": false, "url": "https://www.yelp.com/biz/delhi-woks-plymouth?adjust_creative=Qauz7cdm5F8D_pDp7A48cQ&utm_campaign=yelp_api_v3&utm_medium=api_v3_business_search&utm_source=Qauz7cdm5F8D_pDp7A48cQ", "review_count": 2, "categories": [{"alias": "fooddeliveryservices", "title": "Food Delivery Services"}, {"alias": "noodles", "title": "Noodles"}, {"alias": "indpak", "title": "Indian"}], "rating": 3.5, "coordinates": {"latitude": 45.00243, "longitude": -93.44933}, "transactions": ["delivery"], "location": {"address1": null, "address2": null, "address3": null, "city": "Plymouth", "zip_code": "55441", "country": "US", "state": "MN", "display_address": ["Plymouth, MN 55441"]}, "phone": "+19142171965", "display_phone": "(914) 217-1965", "distance": 11854.570061318485}, {"id": "jq2XNFX0pRzPgx0bLMjBpg", "alias": "ariana-kabob-and-gyro-bistro-minneapolis", "name": "Ariana Kabob & Gyro Bistro", "image_url": "https://s3-media3.fl.yelpcdn.com/bphoto/Gj8AVZF4j086eDpmjQI40g/o.jpg", "is_closed": false, "url": "https://www.yelp.com/biz/ariana-kabob-and-gyro-bistro-minneapolis?adjust_creative=Qauz7cdm5F8D_pDp7A48cQ&utm_campaign=yelp_api_v3&utm_medium=api_v3_business_search&utm_source=Qauz7cdm5F8D_pDp7A48cQ", "review_count": 210, "categories": [{"alias": "mediterranean", "title": "Mediterranean"}, {"alias": "afghani", "title": "Afghan"}, {"alias": "greek", "title": "Greek"}], "rating": 4.5, "coordinates": {"latitude": 44.9592971708184, "longitude": -93.3704155103979}, "transactions": ["delivery", "pickup"], "price": "$$", "location": {"address1": "7115 Cedar Lake Rd", "address2": "", "address3": "", "city": "Minneapolis", "zip_code": "55426", "country": "US", "state": "MN", "display_address": ["7115 Cedar Lake Rd", "Minneapolis, MN 55426"]}, "phone": "+19525468000", "display_phone": "(952) 546-8000", "distance": 6333.756789294072}, {"id": "Z-hTo6edkZjlv0zthyhxNQ", "alias": "india-palace-eden-prairie-eden-prairie", "name": "India Palace - Eden Prairie", "image_url": "https://s3-media2.fl.yelpcdn.com/bphoto/FB3Pp8kxeGHwMrsIcxoZUQ/o.jpg", "is_closed": false, "url": "https://www.yelp.com/biz/india-palace-eden-prairie-eden-prairie?adjust_creative=Qauz7cdm5F8D_pDp7A48cQ&utm_campaign=yelp_api_v3&utm_medium=api_v3_business_search&utm_source=Qauz7cdm5F8D_pDp7A48cQ", "review_count": 118, "categories": [{"alias": "indpak", "title": "Indian"}], "rating": 4.0, "coordinates": {"latitude": 44.864317, "longitude": -93.440894}, "transactions": ["delivery", "pickup"], "price": "$$", "location": {"address1": "936 Prairie Center Dr", "address2": null, "address3": "", "city": "Eden Prairie", "zip_code": "55344", "country": "US", "state": "MN", "display_address": ["936 Prairie Center Dr", "Eden Prairie, MN 55344"]}, "phone": "+19529461923", "display_phone": "(952) 946-1923", "distance": 16346.817154237251}, {"id": "htA1poQR17Q8y5DIXij8UA", "alias": "khyber-pass-cafe-saint-paul-3", "name": "Khyber Pass Cafe", "image_url": "https://s3-media1.fl.yelpcdn.com/bphoto/FND97ik2A6IxQVTZNe3kCw/o.jpg", "is_closed": false, "url": "https://www.yelp.com/biz/khyber-pass-cafe-saint-paul-3?adjust_creative=Qauz7cdm5F8D_pDp7A48cQ&utm_campaign=yelp_api_v3&utm_medium=api_v3_business_search&utm_source=Qauz7cdm5F8D_pDp7A48cQ", "review_count": 109, "categories": [{"alias": "afghani", "title": "Afghan"}, {"alias": "mideastern", "title": "Middle Eastern"}, {"alias": "indpak", "title": "Indian"}], "rating": 4.0, "coordinates": {"latitude": 44.9402249, "longitude": -93.1667066}, "transactions": ["delivery", "pickup"], "price": "$$", "location": {"address1": "1571 Grand Ave", "address2": "", "address3": "", "city": "Saint Paul", "zip_code": "55105", "country": "US", "state": "MN", "display_address": ["1571 Grand Ave", "Saint Paul, MN 55105"]}, "phone": "+16516900505", "display_phone": "(651) 690-0505", "distance": 10156.271480835941}, {"id": "sXHAPdq9XRWT0dfI6wtNig", "alias": "taste-of-india-saint-louis-park", "name": "Taste of India", "image_url": "https://s3-media3.fl.yelpcdn.com/bphoto/KQNBMDEw3XrRKAyaVNw8cg/o.jpg", "is_closed": false, "url": "https://www.yelp.com/biz/taste-of-india-saint-louis-park?adjust_creative=Qauz7cdm5F8D_pDp7A48cQ&utm_campaign=yelp_api_v3&utm_medium=api_v3_business_search&utm_source=Qauz7cdm5F8D_pDp7A48cQ", "review_count": 155, "categories": [{"alias": "indpak", "title": "Indian"}], "rating": 3.5, "coordinates": {"latitude": 44.9695329500222, "longitude": -93.3511580114623}, "transactions": ["delivery", "pickup"], "price": "$$", "location": {"address1": "5617 Wayzata Blvd", "address2": "", "address3": "", "city": "Saint Louis Park", "zip_code": "55416", "country": "US", "state": "MN", "display_address": ["5617 Wayzata Blvd", "Saint Louis Park, MN 55416"]}, "phone": "+19525414865", "display_phone": "(952) 541-4865", "distance": 4799.608898736702}, {"id": "RiDwchhDVVljEsFVu6dU2Q", "alias": "everest-on-grand-saint-paul-2", "name": "Everest on Grand", "image_url": "https://s3-media4.fl.yelpcdn.com/bphoto/nYBLiTGmO27pCJoL32pq_Q/o.jpg", "is_closed": false, "url": "https://www.yelp.com/biz/everest-on-grand-saint-paul-2?adjust_creative=Qauz7cdm5F8D_pDp7A48cQ&utm_campaign=yelp_api_v3&utm_medium=api_v3_business_search&utm_source=Qauz7cdm5F8D_pDp7A48cQ", "review_count": 328, "categories": [{"alias": "himalayan", "title": "Himalayan/Nepalese"}, {"alias": "indpak", "title": "Indian"}], "rating": 4.0, "coordinates": {"latitude": 44.9399051, "longitude": -93.15403}, "transactions": ["delivery", "pickup"], "price": "$$", "location": {"address1": "1278 Grand Ave", "address2": "", "address3": "", "city": "Saint Paul", "zip_code": "55105", "country": "US", "state": "MN", "display_address": ["1278 Grand Ave", "Saint Paul, MN 55105"]}, "phone": "+16516961666", "display_phone": "(651) 696-1666", "distance": 11102.330771766929}, {"id": "20D__fBSdf6niS0VeRSSag", "alias": "india-spice-house-restaurant-eden-prairie", "name": "India Spice House Restaurant", "image_url": "https://s3-media1.fl.yelpcdn.com/bphoto/2J1-J0yPSTYKIzosU-t2fg/o.jpg", "is_closed": false, "url": "https://www.yelp.com/biz/india-spice-house-restaurant-eden-prairie?adjust_creative=Qauz7cdm5F8D_pDp7A48cQ&utm_campaign=yelp_api_v3&utm_medium=api_v3_business_search&utm_source=Qauz7cdm5F8D_pDp7A48cQ", "review_count": 132, "categories": [{"alias": "indpak", "title": "Indian"}], "rating": 3.5, "coordinates": {"latitude": 44.8504451225364, "longitude": -93.4277799725533}, "transactions": ["delivery", "pickup"], "price": "$$", "location": {"address1": "8445 Joiner Way", "address2": null, "address3": null, "city": "Eden Prairie", "zip_code": "55344", "country": "US", "state": "MN", "display_address": ["8445 Joiner Way", "Eden Prairie, MN 55344"]}, "phone": "+19529428010", "display_phone": "(952) 942-8010", "distance": 16761.762680522716}, {"id": "38ZzKwRUuwLqmNLr8V8S-A", "alias": "india-palace-plymouth-2", "name": "India Palace", "image_url": "https://s3-media1.fl.yelpcdn.com/bphoto/E0ku_XlyQta1b2w3X5yorA/o.jpg", "is_closed": false, "url": "https://www.yelp.com/biz/india-palace-plymouth-2?adjust_creative=Qauz7cdm5F8D_pDp7A48cQ&utm_campaign=yelp_api_v3&utm_medium=api_v3_business_search&utm_source=Qauz7cdm5F8D_pDp7A48cQ", "review_count": 139, "categories": [{"alias": "indpak", "title": "Indian"}, {"alias": "buffets", "title": "Buffets"}], "rating": 4.0, "coordinates": {"latitude": 45.03036, "longitude": -93.44748}, "transactions": ["delivery", "pickup"], "location": {"address1": "4190 Vinewood Ln N", "address2": "Ste 120", "address3": "", "city": "Plymouth", "zip_code": "55442", "country": "US", "state": "MN", "display_address": ["4190 Vinewood Ln N", "Ste 120", "Plymouth, MN 55442"]}, "phone": "+17633831880", "display_phone": "(763) 383-1880", "distance": 14211.476760401985}, {"id": "aSJKS0LGxUI-gBwQokMuFw", "alias": "bukhara-indian-bistro-wayzata", "name": "Bukhara Indian Bistro", "image_url": "https://s3-media1.fl.yelpcdn.com/bphoto/EHzhdOlqG6u6FYCdUByyIg/o.jpg", "is_closed": false, "url": "https://www.yelp.com/biz/bukhara-indian-bistro-wayzata?adjust_creative=Qauz7cdm5F8D_pDp7A48cQ&utm_campaign=yelp_api_v3&utm_medium=api_v3_business_search&utm_source=Qauz7cdm5F8D_pDp7A48cQ", "review_count": 164, "categories": [{"alias": "indpak", "title": "Indian"}, {"alias": "desserts", "title": "Desserts"}, {"alias": "seafood", "title": "Seafood"}], "rating": 4.0, "coordinates": {"latitude": 44.9709081, "longitude": -93.47752}, "transactions": ["delivery", "pickup"], "price": "$$", "location": {"address1": "15718 Wayzata Blvd E", "address2": "", "address3": "", "city": "Wayzata", "zip_code": "55391", "country": "US", "state": "MN", "display_address": ["15718 Wayzata Blvd E", "Wayzata, MN 55391"]}, "phone": "+19524767997", "display_phone": "(952) 476-7997", "distance": 14732.240538455786}, {"id": "kVrPuXkwm_DSt3kX0kTERg", "alias": "marhaba-mediterranean-grill-minneapolis-2", "name": "Marhaba Mediterranean Grill", "image_url": "https://s3-media1.fl.yelpcdn.com/bphoto/I7lToZkhzmeyKDDssNuKvg/o.jpg", "is_closed": false, "url": "https://www.yelp.com/biz/marhaba-mediterranean-grill-minneapolis-2?adjust_creative=Qauz7cdm5F8D_pDp7A48cQ&utm_campaign=yelp_api_v3&utm_medium=api_v3_business_search&utm_source=Qauz7cdm5F8D_pDp7A48cQ", "review_count": 98, "categories": [{"alias": "buffets", "title": "Buffets"}, {"alias": "mideastern", "title": "Middle Eastern"}, {"alias": "mediterranean", "title": "Mediterranean"}], "rating": 4.0, "coordinates": {"latitude": 44.9516448974609, "longitude": -93.2775192260742}, "transactions": ["delivery", "pickup"], "price": "$$", "location": {"address1": "2801 Nicollet Ave S", "address2": "", "address3": "", "city": "Minneapolis", "zip_code": "55408", "country": "US", "state": "MN", "display_address": ["2801 Nicollet Ave S", "Minneapolis, MN 55408"]}, "phone": "+16128707871", "display_phone": "(612) 870-7871", "distance": 1849.1301606249092}, {"id": "7adZlIs7MhccsOdaCLftkA", "alias": "bay-leaf-indian-cuisine-eagan-eagan", "name": "Bay Leaf Indian Cuisine - Eagan", "image_url": "https://s3-media1.fl.yelpcdn.com/bphoto/KsPD8DIG3QmfhwS0MGQzMA/o.jpg", "is_closed": false, "url": "https://www.yelp.com/biz/bay-leaf-indian-cuisine-eagan-eagan?adjust_creative=Qauz7cdm5F8D_pDp7A48cQ&utm_campaign=yelp_api_v3&utm_medium=api_v3_business_search&utm_source=Qauz7cdm5F8D_pDp7A48cQ", "review_count": 139, "categories": [{"alias": "indpak", "title": "Indian"}, {"alias": "buffets", "title": "Buffets"}], "rating": 4.0, "coordinates": {"latitude": 44.8318299, "longitude": -93.15792}, "transactions": ["delivery", "pickup"], "price": "$$", "location": {"address1": "1260 Town Ctr Dr", "address2": null, "address3": "", "city": "Eagan", "zip_code": "55123", "country": "US", "state": "MN", "display_address": ["1260 Town Ctr Dr", "Eagan, MN 55123"]}, "phone": "+16516888686", "display_phone": "(651) 688-8686", "distance": 18170.503225829045}, {"id": "_VLQxs-hjhxQNK3fDG8QmA", "alias": "bombay-pizza-kitchen-eden-prairie-2", "name": "Bombay Pizza Kitchen", "image_url": "https://s3-media1.fl.yelpcdn.com/bphoto/-QrMoegx53pt-UmQU-qdFA/o.jpg", "is_closed": false, "url": "https://www.yelp.com/biz/bombay-pizza-kitchen-eden-prairie-2?adjust_creative=Qauz7cdm5F8D_pDp7A48cQ&utm_campaign=yelp_api_v3&utm_medium=api_v3_business_search&utm_source=Qauz7cdm5F8D_pDp7A48cQ", "review_count": 39, "categories": [{"alias": "pizza", "title": "Pizza"}, {"alias": "indpak", "title": "Indian"}, {"alias": "beerbar", "title": "Beer Bar"}], "rating": 4.5, "coordinates": {"latitude": 44.863702, "longitude": -93.487281}, "transactions": ["delivery", "pickup"], "location": {"address1": "16518 W 78th St", "address2": null, "address3": "", "city": "Eden Prairie", "zip_code": "55346", "country": "US", "state": "MN", "display_address": ["16518 W 78th St", "Eden Prairie, MN 55346"]}, "phone": "+16124254205", "display_phone": "(612) 425-4205", "distance": 19211.98500842479}, {"id": "5sE5cJ47WB3LM583Idpykg", "alias": "kabobs-indian-grill-bloomington-2", "name": "Kabob's Indian Grill", "image_url": "https://s3-media1.fl.yelpcdn.com/bphoto/L3XZLGSYwZvPhOFCtVRoYg/o.jpg", "is_closed": false, "url": "https://www.yelp.com/biz/kabobs-indian-grill-bloomington-2?adjust_creative=Qauz7cdm5F8D_pDp7A48cQ&utm_campaign=yelp_api_v3&utm_medium=api_v3_business_search&utm_source=Qauz7cdm5F8D_pDp7A48cQ", "review_count": 102, "categories": [{"alias": "indpak", "title": "Indian"}], "rating": 3.5, "coordinates": {"latitude": 44.8606853, "longitude": -93.2683049}, "transactions": ["delivery", "pickup"], "price": "$$", "location": {"address1": "7814 Portland Ave S", "address2": null, "address3": null, "city": "Bloomington", "zip_code": "55420", "country": "US", "state": "MN", "display_address": ["7814 Portland Ave S", "Bloomington, MN 55420"]}, "phone": "+19528882779", "display_phone": "(952) 888-2779", "distance": 11723.680755796813}, {"id": "TrE8xTTd3OsozzeJV3yfTg", "alias": "world-famous-momo-saint-paul", "name": "World Famous Momo", "image_url": "https://s3-media3.fl.yelpcdn.com/bphoto/V1L0AVX8WhVYJnbwPAHtog/o.jpg", "is_closed": false, "url": "https://www.yelp.com/biz/world-famous-momo-saint-paul?adjust_creative=Qauz7cdm5F8D_pDp7A48cQ&utm_campaign=yelp_api_v3&utm_medium=api_v3_business_search&utm_source=Qauz7cdm5F8D_pDp7A48cQ", "review_count": 9, "categories": [{"alias": "indpak", "title": "Indian"}, {"alias": "himalayan", "title": "Himalayan/Nepalese"}, {"alias": "hotdogs", "title": "Fast Food"}], "rating": 5.0, "coordinates": {"latitude": 44.90638, "longitude": -93.08048}, "transactions": [], "location": {"address1": "1318 S Robert St", "address2": "", "address3": null, "city": "Saint Paul", "zip_code": "55118", "country": "US", "state": "MN", "display_address": ["1318 S Robert St", "Saint Paul, MN 55118"]}, "phone": "+13202045554", "display_phone": "(320) 204-5554", "distance": 17803.812802283792}, {"id": "3lFKsoqXBqC5oZJIWRk1Qg", "alias": "india-palace-burnsville", "name": "India Palace", "image_url": "https://s3-media2.fl.yelpcdn.com/bphoto/fpMrWudHP3gK4Kk4udRg3Q/o.jpg", "is_closed": false, "url": "https://www.yelp.com/biz/india-palace-burnsville?adjust_creative=Qauz7cdm5F8D_pDp7A48cQ&utm_campaign=yelp_api_v3&utm_medium=api_v3_business_search&utm_source=Qauz7cdm5F8D_pDp7A48cQ", "review_count": 157, "categories": [{"alias": "indpak", "title": "Indian"}, {"alias": "desserts", "title": "Desserts"}, {"alias": "seafood", "title": "Seafood"}], "rating": 4.0, "coordinates": {"latitude": 44.74577, "longitude": -93.303822}, "transactions": ["delivery", "pickup"], "price": "$$", "location": {"address1": "1905 County Rd 42 W", "address2": "", "address3": "", "city": "Burnsville", "zip_code": "55306", "country": "US", "state": "MN", "display_address": ["1905 County Rd 42 W", "Burnsville, MN 55306"]}, "phone": "+19524355888", "display_phone": "(952) 435-5888", "distance": 24459.277313598694}, {"id": "LvWa8haOVmzHraBAtqUw0Q", "alias": "tandoor-restaurant-bloomington", "name": "Tandoor Restaurant", "image_url": "https://s3-media1.fl.yelpcdn.com/bphoto/j-E2Vy5GyFLEli7p0uuxHw/o.jpg", "is_closed": false, "url": "https://www.yelp.com/biz/tandoor-restaurant-bloomington?adjust_creative=Qauz7cdm5F8D_pDp7A48cQ&utm_campaign=yelp_api_v3&utm_medium=api_v3_business_search&utm_source=Qauz7cdm5F8D_pDp7A48cQ", "review_count": 141, "categories": [{"alias": "indpak", "title": "Indian"}], "rating": 3.5, "coordinates": {"latitude": 44.8576202, "longitude": -93.3050049}, "transactions": ["delivery", "pickup"], "price": "$$", "location": {"address1": "8062 Morgan Cir S", "address2": "", "address3": "", "city": "Bloomington", "zip_code": "55431", "country": "US", "state": "MN", "display_address": ["8062 Morgan Cir S", "Bloomington, MN 55431"]}, "phone": "+19528859060", "display_phone": "(952) 885-9060", "distance": 12106.116371106491}, {"id": "Vq-f4RApfOpWJMWFmyxZsQ", "alias": "new-york-gyro-columbia-heights", "name": "New York Gyro", "image_url": "https://s3-media2.fl.yelpcdn.com/bphoto/mnOimKpoZ80xG5vuntVGCg/o.jpg", "is_closed": false, "url": "https://www.yelp.com/biz/new-york-gyro-columbia-heights?adjust_creative=Qauz7cdm5F8D_pDp7A48cQ&utm_campaign=yelp_api_v3&utm_medium=api_v3_business_search&utm_source=Qauz7cdm5F8D_pDp7A48cQ", "review_count": 86, "categories": [{"alias": "mideastern", "title": "Middle Eastern"}, {"alias": "indpak", "title": "Indian"}, {"alias": "pakistani", "title": "Pakistani"}], "rating": 3.5, "coordinates": {"latitude": 45.05249, "longitude": -93.24694}, "transactions": ["delivery", "pickup"], "price": "$", "location": {"address1": "4621 Central Ave NE", "address2": null, "address3": "", "city": "Columbia Heights", "zip_code": "55421", "country": "US", "state": "MN", "display_address": ["4621 Central Ave NE", "Columbia Heights, MN 55421"]}, "phone": "+17635717070", "display_phone": "(763) 571-7070", "distance": 10249.071731246464}, {"id": "R8vA2CYHxPh5oDos9KyLyQ", "alias": "india-caf\u00e9-bloomington-2", "name": "India Caf\u00e9", "image_url": "https://s3-media2.fl.yelpcdn.com/bphoto/z6joqFBWT7118E_HynNrwg/o.jpg", "is_closed": false, "url": "https://www.yelp.com/biz/india-caf%C3%A9-bloomington-2?adjust_creative=Qauz7cdm5F8D_pDp7A48cQ&utm_campaign=yelp_api_v3&utm_medium=api_v3_business_search&utm_source=Qauz7cdm5F8D_pDp7A48cQ", "review_count": 121, "categories": [{"alias": "indpak", "title": "Indian"}], "rating": 3.5, "coordinates": {"latitude": 44.8606159, "longitude": -93.2683049}, "transactions": ["pickup"], "price": "$$", "location": {"address1": "7826 Portland Ave S", "address2": null, "address3": null, "city": "Bloomington", "zip_code": "55420", "country": "US", "state": "MN", "display_address": ["7826 Portland Ave S", "Bloomington, MN 55420"]}, "phone": "+19528841067", "display_phone": "(952) 884-1067", "distance": 11746.670308184692}, {"id": "WG5BSFopNasSa286NB64cQ", "alias": "desi-foods-eagan", "name": "Desi Foods", "image_url": "https://s3-media3.fl.yelpcdn.com/bphoto/Mb3ACKmenkPNq50Np8DAQw/o.jpg", "is_closed": false, "url": "https://www.yelp.com/biz/desi-foods-eagan?adjust_creative=Qauz7cdm5F8D_pDp7A48cQ&utm_campaign=yelp_api_v3&utm_medium=api_v3_business_search&utm_source=Qauz7cdm5F8D_pDp7A48cQ", "review_count": 10, "categories": [{"alias": "grocery", "title": "Grocery"}, {"alias": "indpak", "title": "Indian"}], "rating": 3.5, "coordinates": {"latitude": 44.8325379, "longitude": -93.1593701}, "transactions": ["delivery", "pickup"], "price": "$$", "location": {"address1": "3446 Denmark Ave", "address2": null, "address3": null, "city": "Eagan", "zip_code": "55123", "country": "US", "state": "MN", "display_address": ["3446 Denmark Ave", "Eagan, MN 55123"]}, "phone": "+16516867766", "display_phone": "(651) 686-7766", "distance": 18182.906217493568}, {"id": "12uauxTaDO1EevTNeAgFRQ", "alias": "tibet-corner-hopkins", "name": "Tibet Corner", "image_url": "https://s3-media3.fl.yelpcdn.com/bphoto/xhyjoFMq0aPmcgeOqvIPHQ/o.jpg", "is_closed": false, "url": "https://www.yelp.com/biz/tibet-corner-hopkins?adjust_creative=Qauz7cdm5F8D_pDp7A48cQ&utm_campaign=yelp_api_v3&utm_medium=api_v3_business_search&utm_source=Qauz7cdm5F8D_pDp7A48cQ", "review_count": 100, "categories": [{"alias": "indpak", "title": "Indian"}, {"alias": "buffets", "title": "Buffets"}, {"alias": "himalayan", "title": "Himalayan/Nepalese"}], "rating": 4.0, "coordinates": {"latitude": 44.924211, "longitude": -93.41033}, "transactions": ["delivery", "pickup"], "price": "$$", "location": {"address1": "802 Mainstreet", "address2": null, "address3": "", "city": "Hopkins", "zip_code": "55343", "country": "US", "state": "MN", "display_address": ["802 Mainstreet", "Hopkins, MN 55343"]}, "phone": "+19524263885", "display_phone": "(952) 426-3885", "distance": 10500.12996234307}, {"id": "0wJTX6wwL7IqAsxDQK0jqA", "alias": "moroccan-flavors-minneapolis", "name": "Moroccan Flavors", "image_url": "https://s3-media3.fl.yelpcdn.com/bphoto/RCjFe6Dey3La8U_ynvU4gQ/o.jpg", "is_closed": false, "url": "https://www.yelp.com/biz/moroccan-flavors-minneapolis?adjust_creative=Qauz7cdm5F8D_pDp7A48cQ&utm_campaign=yelp_api_v3&utm_medium=api_v3_business_search&utm_source=Qauz7cdm5F8D_pDp7A48cQ", "review_count": 128, "categories": [{"alias": "moroccan", "title": "Moroccan"}, {"alias": "salad", "title": "Salad"}, {"alias": "vegetarian", "title": "Vegetarian"}], "rating": 4.5, "coordinates": {"latitude": 44.9492188827136, "longitude": -93.2606295085205}, "transactions": ["delivery", "pickup"], "price": "$$", "location": {"address1": "920 E Lake S", "address2": "Ste 126", "address3": "", "city": "Minneapolis", "zip_code": "55407", "country": "US", "state": "MN", "display_address": ["920 E Lake S", "Ste 126", "Minneapolis, MN 55407"]}, "phone": "+16514100361", "display_phone": "(651) 410-0361", "distance": 2966.606580216482}, {"id": "1pacAHafD8_7ktRohdZldQ", "alias": "shifa-restaurant-minneapolis", "name": "Shifa Restaurant", "image_url": "https://s3-media4.fl.yelpcdn.com/bphoto/MjKygnz2HBKLx0RycJnHuA/o.jpg", "is_closed": false, "url": "https://www.yelp.com/biz/shifa-restaurant-minneapolis?adjust_creative=Qauz7cdm5F8D_pDp7A48cQ&utm_campaign=yelp_api_v3&utm_medium=api_v3_business_search&utm_source=Qauz7cdm5F8D_pDp7A48cQ", "review_count": 3, "categories": [{"alias": "somali", "title": "Somali"}, {"alias": "asianfusion", "title": "Asian Fusion"}, {"alias": "halal", "title": "Halal"}], "rating": 3.5, "coordinates": {"latitude": 44.94808, "longitude": -93.21949}, "transactions": ["delivery", "pickup"], "location": {"address1": "3621 E Lake St", "address2": null, "address3": "", "city": "Minneapolis", "zip_code": "55406", "country": "US", "state": "MN", "display_address": ["3621 E Lake St", "Minneapolis, MN 55406"]}, "phone": "+16122235040", "display_phone": "(612) 223-5040", "distance": 5908.545172507575}, {"id": "3hVIajiNckKxy-yIPCp_fw", "alias": "taste-of-nepal-saint-paul-3", "name": "Taste of Nepal", "image_url": "https://s3-media3.fl.yelpcdn.com/bphoto/JWzW0WAbMiiPafXDfc7YCg/o.jpg", "is_closed": false, "url": "https://www.yelp.com/biz/taste-of-nepal-saint-paul-3?adjust_creative=Qauz7cdm5F8D_pDp7A48cQ&utm_campaign=yelp_api_v3&utm_medium=api_v3_business_search&utm_source=Qauz7cdm5F8D_pDp7A48cQ", "review_count": 8, "categories": [{"alias": "himalayan", "title": "Himalayan/Nepalese"}, {"alias": "indpak", "title": "Indian"}], "rating": 3.5, "coordinates": {"latitude": 44.98385, "longitude": -93.10603}, "transactions": ["delivery", "pickup"], "location": {"address1": "1415 Rice St", "address2": "", "address3": null, "city": "Saint Paul", "zip_code": "55117", "country": "US", "state": "MN", "display_address": ["1415 Rice St", "Saint Paul, MN 55117"]}, "phone": "+16513401046", "display_phone": "(651) 340-1046", "distance": 14638.513493389366}, {"id": "S3MP4keJWfEjK2PX52Mx7A", "alias": "tibet-kitchen-bar-and-restaurant-minneapolis", "name": "Tibet Kitchen Bar & Restaurant", "image_url": "https://s3-media2.fl.yelpcdn.com/bphoto/Qd2w21FW2P1jaKO-x4fHjg/o.jpg", "is_closed": false, "url": "https://www.yelp.com/biz/tibet-kitchen-bar-and-restaurant-minneapolis?adjust_creative=Qauz7cdm5F8D_pDp7A48cQ&utm_campaign=yelp_api_v3&utm_medium=api_v3_business_search&utm_source=Qauz7cdm5F8D_pDp7A48cQ", "review_count": 141, "categories": [{"alias": "asianfusion", "title": "Asian Fusion"}, {"alias": "himalayan", "title": "Himalayan/Nepalese"}], "rating": 3.5, "coordinates": {"latitude": 44.964241, "longitude": -93.2775192}, "transactions": ["delivery", "pickup"], "price": "$$", "location": {"address1": "1833 Nicollet Ave S", "address2": "", "address3": "", "city": "Minneapolis", "zip_code": "55403", "country": "US", "state": "MN", "display_address": ["1833 Nicollet Ave S", "Minneapolis, MN 55403"]}, "phone": "+16128728663", "display_phone": "(612) 872-8663", "distance": 1023.3142364326383}, {"id": "tjTGqL7tsuHoS63_l8eCUA", "alias": "persis-biryani-indian-grill-eagan", "name": "Persis Biryani Indian Grill", "image_url": "https://s3-media1.fl.yelpcdn.com/bphoto/5msw_JBPBteopUdlpXrEeQ/o.jpg", "is_closed": false, "url": "https://www.yelp.com/biz/persis-biryani-indian-grill-eagan?adjust_creative=Qauz7cdm5F8D_pDp7A48cQ&utm_campaign=yelp_api_v3&utm_medium=api_v3_business_search&utm_source=Qauz7cdm5F8D_pDp7A48cQ", "review_count": 106, "categories": [{"alias": "indpak", "title": "Indian"}], "rating": 3.0, "coordinates": {"latitude": 44.83038, "longitude": -93.16144167}, "transactions": ["delivery"], "price": "$$", "location": {"address1": "1282A Town Centre Dr", "address2": "", "address3": "", "city": "Eagan", "zip_code": "55123", "country": "US", "state": "MN", "display_address": ["1282A Town Centre Dr", "Eagan, MN 55123"]}, "phone": "+16513308099", "display_phone": "(651) 330-8099", "distance": 17958.610965417323}, {"id": "r2vDhHdcVA0Qe7RPn8g1wg", "alias": "kadai-indian-kitchen-plymouth", "name": "Kadai Indian Kitchen", "image_url": "https://s3-media2.fl.yelpcdn.com/bphoto/pHRrmO6LmnuMJqpob4aenw/o.jpg", "is_closed": false, "url": "https://www.yelp.com/biz/kadai-indian-kitchen-plymouth?adjust_creative=Qauz7cdm5F8D_pDp7A48cQ&utm_campaign=yelp_api_v3&utm_medium=api_v3_business_search&utm_source=Qauz7cdm5F8D_pDp7A48cQ", "review_count": 77, "categories": [{"alias": "indpak", "title": "Indian"}], "rating": 3.5, "coordinates": {"latitude": 45.01616, "longitude": -93.48273}, "transactions": [], "price": "$$", "location": {"address1": "3195 D Vicksburg Ln N", "address2": "", "address3": "", "city": "Plymouth", "zip_code": "55447", "country": "US", "state": "MN", "display_address": ["3195 D Vicksburg Ln N", "Plymouth, MN 55447"]}, "phone": "", "display_phone": "", "distance": 16132.201748861171}, {"id": "IbyihNnWhTcgbOmk8nWRAg", "alias": "india-palace-woodbury", "name": "India Palace", "image_url": "https://s3-media2.fl.yelpcdn.com/bphoto/iOuhlwaaM3-9N8-RrfYNPg/o.jpg", "is_closed": false, "url": "https://www.yelp.com/biz/india-palace-woodbury?adjust_creative=Qauz7cdm5F8D_pDp7A48cQ&utm_campaign=yelp_api_v3&utm_medium=api_v3_business_search&utm_source=Qauz7cdm5F8D_pDp7A48cQ", "review_count": 149, "categories": [{"alias": "indpak", "title": "Indian"}], "rating": 4.0, "coordinates": {"latitude": 44.9432188950913, "longitude": -92.9353006016165}, "transactions": ["delivery", "pickup"], "price": "$$", "location": {"address1": "8362 Tamarack Vlg", "address2": "Ste 120", "address3": "", "city": "Woodbury", "zip_code": "55125", "country": "US", "state": "MN", "display_address": ["8362 Tamarack Vlg", "Ste 120", "Woodbury, MN 55125"]}, "phone": "+16517316300", "display_phone": "(651) 731-6300", "distance": 28053.312244491804}, {"id": "2Zieg79mSClT8n4UIClppw", "alias": "nepali-kitchen-maplewood-4", "name": "Nepali Kitchen", "image_url": "https://s3-media4.fl.yelpcdn.com/bphoto/mX_97W5uk2wDxDDbTBfCPg/o.jpg", "is_closed": false, "url": "https://www.yelp.com/biz/nepali-kitchen-maplewood-4?adjust_creative=Qauz7cdm5F8D_pDp7A48cQ&utm_campaign=yelp_api_v3&utm_medium=api_v3_business_search&utm_source=Qauz7cdm5F8D_pDp7A48cQ", "review_count": 3, "categories": [{"alias": "himalayan", "title": "Himalayan/Nepalese"}, {"alias": "intlgrocery", "title": "International Grocery"}], "rating": 5.0, "coordinates": {"latitude": 44.99236, "longitude": -93.104295}, "transactions": ["pickup"], "location": {"address1": "1700 Rice St", "address2": "Ste J & K", "address3": "", "city": "Maplewood", "zip_code": "55117", "country": "US", "state": "MN", "display_address": ["1700 Rice St", "Ste J & K", "Maplewood, MN 55117"]}, "phone": "+16514409759", "display_phone": "(651) 440-9759", "distance": 14955.117207929981}, {"id": "hN5iCpHcbZXHnIfrnleJAw", "alias": "ocean-buffet-minneapolis-2", "name": "Ocean Buffet", "image_url": "https://s3-media2.fl.yelpcdn.com/bphoto/Uoszlo7yLQgdYOAMgoPCtw/o.jpg", "is_closed": false, "url": "https://www.yelp.com/biz/ocean-buffet-minneapolis-2?adjust_creative=Qauz7cdm5F8D_pDp7A48cQ&utm_campaign=yelp_api_v3&utm_medium=api_v3_business_search&utm_source=Qauz7cdm5F8D_pDp7A48cQ", "review_count": 89, "categories": [{"alias": "buffets", "title": "Buffets"}, {"alias": "seafood", "title": "Seafood"}, {"alias": "asianfusion", "title": "Asian Fusion"}], "rating": 2.5, "coordinates": {"latitude": 45.0601016, "longitude": -93.3135228}, "transactions": ["pickup", "delivery"], "price": "$$", "location": {"address1": "5800 Shingle Creek Pkwy", "address2": null, "address3": "", "city": "Minneapolis", "zip_code": "55430", "country": "US", "state": "MN", "display_address": ["5800 Shingle Creek Pkwy", "Minneapolis, MN 55430"]}, "phone": "+17635663999", "display_phone": "(763) 566-3999", "distance": 10665.769974211646}, {"id": "3G-5paLlEfD-SoaH7sWKaQ", "alias": "hot-indian-bloomington-3", "name": "Hot Indian", "image_url": "https://s3-media2.fl.yelpcdn.com/bphoto/W9h58Jn0r-QY-jMq2G_YTw/o.jpg", "is_closed": false, "url": "https://www.yelp.com/biz/hot-indian-bloomington-3?adjust_creative=Qauz7cdm5F8D_pDp7A48cQ&utm_campaign=yelp_api_v3&utm_medium=api_v3_business_search&utm_source=Qauz7cdm5F8D_pDp7A48cQ", "review_count": 4, "categories": [{"alias": "indpak", "title": "Indian"}, {"alias": "hotdogs", "title": "Fast Food"}], "rating": 4.0, "coordinates": {"latitude": 44.8559939323318, "longitude": -93.2421445391622}, "transactions": [], "location": {"address1": "118 West Market", "address2": "", "address3": null, "city": "Bloomington", "zip_code": "55425", "country": "US", "state": "MN", "display_address": ["118 West Market", "Bloomington, MN 55425"]}, "phone": "", "display_phone": "", "distance": 12764.781705685273}, {"id": "qL7pPz-g909YmKtUAqS2Tw", "alias": "taste-of-india-maplewood", "name": "Taste of India", "image_url": "https://s3-media1.fl.yelpcdn.com/bphoto/N4u8miVUOgs2UIyBgjPQog/o.jpg", "is_closed": false, "url": "https://www.yelp.com/biz/taste-of-india-maplewood?adjust_creative=Qauz7cdm5F8D_pDp7A48cQ&utm_campaign=yelp_api_v3&utm_medium=api_v3_business_search&utm_source=Qauz7cdm5F8D_pDp7A48cQ", "review_count": 70, "categories": [{"alias": "indpak", "title": "Indian"}], "rating": 3.5, "coordinates": {"latitude": 45.0109963, "longitude": -93.0269588}, "transactions": ["pickup", "delivery"], "price": "$$", "location": {"address1": "1745 Cope Ave E", "address2": "", "address3": "", "city": "Maplewood", "zip_code": "55109", "country": "US", "state": "MN", "display_address": ["1745 Cope Ave E", "Maplewood, MN 55109"]}, "phone": "+16517735477", "display_phone": "(651) 773-5477", "distance": 21324.602492716745}, {"id": "INLemkifDPw3FDZZXGD-WA", "alias": "sandcastle-minneapolis", "name": "Sandcastle", "image_url": "https://s3-media4.fl.yelpcdn.com/bphoto/Q8Pz0stMrZqfbK-4Kyo0-Q/o.jpg", "is_closed": false, "url": "https://www.yelp.com/biz/sandcastle-minneapolis?adjust_creative=Qauz7cdm5F8D_pDp7A48cQ&utm_campaign=yelp_api_v3&utm_medium=api_v3_business_search&utm_source=Qauz7cdm5F8D_pDp7A48cQ", "review_count": 89, "categories": [{"alias": "wraps", "title": "Wraps"}, {"alias": "tradamerican", "title": "American (Traditional)"}, {"alias": "sandwiches", "title": "Sandwiches"}], "rating": 3.5, "coordinates": {"latitude": 44.911879, "longitude": -93.243477}, "transactions": ["delivery"], "price": "$$", "location": {"address1": "4955 W Lake Nokomis Pkwy", "address2": "", "address3": "", "city": "Minneapolis", "zip_code": "55417", "country": "US", "state": "MN", "display_address": ["4955 W Lake Nokomis Pkwy", "Minneapolis, MN 55417"]}, "phone": "+16127225550", "display_phone": "(612) 722-5550", "distance": 7021.808266214571}, {"id": "zAjy65H8FfK5YbZJ6p4a9Q", "alias": "franklin-halal-market-minneapolis", "name": "Franklin Halal Market", "image_url": "https://s3-media2.fl.yelpcdn.com/bphoto/P8Neflob845DkJjyRlXhkw/o.jpg", "is_closed": false, "url": "https://www.yelp.com/biz/franklin-halal-market-minneapolis?adjust_creative=Qauz7cdm5F8D_pDp7A48cQ&utm_campaign=yelp_api_v3&utm_medium=api_v3_business_search&utm_source=Qauz7cdm5F8D_pDp7A48cQ", "review_count": 2, "categories": [{"alias": "halal", "title": "Halal"}, {"alias": "grocery", "title": "Grocery"}], "rating": 4.0, "coordinates": {"latitude": 44.962536, "longitude": -93.252571}, "transactions": [], "price": "$", "location": {"address1": "1517 East Franklin Ave", "address2": "", "address3": "", "city": "Minneapolis", "zip_code": "55404", "country": "US", "state": "MN", "display_address": ["1517 East Franklin Ave", "Minneapolis, MN 55404"]}, "phone": "+16128718060", "display_phone": "(612) 871-8060", "distance": 2995.830851077061}, {"id": "q5UQBXee7gR-etVuUEiXTQ", "alias": "jewel-of-india-minneapolis", "name": "Jewel of India", "image_url": "https://s3-media3.fl.yelpcdn.com/bphoto/3qprxFqSwC-EiUG4zt3cQw/o.jpg", "is_closed": false, "url": "https://www.yelp.com/biz/jewel-of-india-minneapolis?adjust_creative=Qauz7cdm5F8D_pDp7A48cQ&utm_campaign=yelp_api_v3&utm_medium=api_v3_business_search&utm_source=Qauz7cdm5F8D_pDp7A48cQ", "review_count": 108, "categories": [{"alias": "indpak", "title": "Indian"}], "rating": 2.5, "coordinates": {"latitude": 44.97298, "longitude": -93.24815}, "transactions": ["pickup", "delivery"], "price": "$$", "location": {"address1": "1427 Washington Ave S", "address2": "", "address3": "", "city": "Minneapolis", "zip_code": "55454", "country": "US", "state": "MN", "display_address": ["1427 Washington Ave S", "Minneapolis, MN 55454"]}, "phone": "+16123390002", "display_phone": "(612) 339-0002", "distance": 3423.457337002202}, {"id": "ENdITBhIJOVBKmy_cFjUIA", "alias": "hyderabad-house-plymouth-2", "name": "Hyderabad House", "image_url": "https://s3-media4.fl.yelpcdn.com/bphoto/qeUysP1H1zEYVG9NKKbeTg/o.jpg", "is_closed": false, "url": "https://www.yelp.com/biz/hyderabad-house-plymouth-2?adjust_creative=Qauz7cdm5F8D_pDp7A48cQ&utm_campaign=yelp_api_v3&utm_medium=api_v3_business_search&utm_source=Qauz7cdm5F8D_pDp7A48cQ", "review_count": 6, "categories": [{"alias": "indpak", "title": "Indian"}], "rating": 2.5, "coordinates": {"latitude": 45.016129, "longitude": -93.48265}, "transactions": ["pickup", "delivery"], "location": {"address1": "3195 Vicksburg Ln N", "address2": "Ste D", "address3": null, "city": "Plymouth", "zip_code": "55447", "country": "US", "state": "MN", "display_address": ["3195 Vicksburg Ln N", "Ste D", "Plymouth, MN 55447"]}, "phone": "+16514126660", "display_phone": "(651) 412-6660", "distance": 16132.54537274317}, {"id": "jG9ohAnMqxs6Xsw4sMcqfg", "alias": "kabab-and-currys-minneapolis-2", "name": "Kabab & Currys", "image_url": "", "is_closed": false, "url": "https://www.yelp.com/biz/kabab-and-currys-minneapolis-2?adjust_creative=Qauz7cdm5F8D_pDp7A48cQ&utm_campaign=yelp_api_v3&utm_medium=api_v3_business_search&utm_source=Qauz7cdm5F8D_pDp7A48cQ", "review_count": 1, "categories": [{"alias": "indpak", "title": "Indian"}], "rating": 4.0, "coordinates": {"latitude": 44.9445, "longitude": -93.2470169}, "transactions": [], "location": {"address1": "3205 Cedar Ave S", "address2": "", "address3": "", "city": "Minneapolis", "zip_code": "55407", "country": "US", "state": "MN", "display_address": ["3205 Cedar Ave S", "Minneapolis, MN 55407"]}, "phone": "+16128861485", "display_phone": "(612) 886-1485", "distance": 8720.581770477716}, {"id": "ty8xm2umF-rGIRN9V8dC7A", "alias": "fasika-ethiopian-restaurant-saint-paul-2", "name": "Fasika Ethiopian Restaurant", "image_url": "https://s3-media1.fl.yelpcdn.com/bphoto/DnIlJ1YUyKrd4lHwVhEx-A/o.jpg", "is_closed": false, "url": "https://www.yelp.com/biz/fasika-ethiopian-restaurant-saint-paul-2?adjust_creative=Qauz7cdm5F8D_pDp7A48cQ&utm_campaign=yelp_api_v3&utm_medium=api_v3_business_search&utm_source=Qauz7cdm5F8D_pDp7A48cQ", "review_count": 303, "categories": [{"alias": "ethiopian", "title": "Ethiopian"}, {"alias": "vegan", "title": "Vegan"}, {"alias": "vegetarian", "title": "Vegetarian"}], "rating": 4.0, "coordinates": {"latitude": 44.9564172, "longitude": -93.1667551}, "transactions": ["delivery"], "price": "$$", "location": {"address1": "510 N Snelling Ave", "address2": "", "address3": "", "city": "Saint Paul", "zip_code": "55104", "country": "US", "state": "MN", "display_address": ["510 N Snelling Ave", "Saint Paul, MN 55104"]}, "phone": "+16516464747", "display_phone": "(651) 646-4747", "distance": 9783.781751521992}, {"id": "s1h61QgGwHgIcsLpsa44Nw", "alias": "wok-in-the-park-saint-louis-park", "name": "Wok in the Park", "image_url": "https://s3-media1.fl.yelpcdn.com/bphoto/-tgA-ohXy0o_CODGaI8ffQ/o.jpg", "is_closed": false, "url": "https://www.yelp.com/biz/wok-in-the-park-saint-louis-park?adjust_creative=Qauz7cdm5F8D_pDp7A48cQ&utm_campaign=yelp_api_v3&utm_medium=api_v3_business_search&utm_source=Qauz7cdm5F8D_pDp7A48cQ", "review_count": 386, "categories": [{"alias": "asianfusion", "title": "Asian Fusion"}, {"alias": "vegan", "title": "Vegan"}, {"alias": "gluten_free", "title": "Gluten-Free"}], "rating": 4.0, "coordinates": {"latitude": 44.94903, "longitude": -93.38176}, "transactions": ["delivery"], "price": "$$", "location": {"address1": "3005 Utah Ave S", "address2": "", "address3": "", "city": "Saint Louis Park", "zip_code": "55426", "country": "US", "state": "MN", "display_address": ["3005 Utah Ave S", "Saint Louis Park, MN 55426"]}, "phone": "+19526575754", "display_phone": "(952) 657-5754", "distance": 7414.173912220074}, {"id": "s5BzbSqi6d8zsAeteklLNw", "alias": "hot-indian-minneapolis-skyway-minneapolis", "name": "Hot Indian - Minneapolis Skyway", "image_url": "https://s3-media2.fl.yelpcdn.com/bphoto/72cEn558KyddYhErf_O5mQ/o.jpg", "is_closed": false, "url": "https://www.yelp.com/biz/hot-indian-minneapolis-skyway-minneapolis?adjust_creative=Qauz7cdm5F8D_pDp7A48cQ&utm_campaign=yelp_api_v3&utm_medium=api_v3_business_search&utm_source=Qauz7cdm5F8D_pDp7A48cQ", "review_count": 10, "categories": [{"alias": "indpak", "title": "Indian"}], "rating": 4.0, "coordinates": {"latitude": 44.9750484, "longitude": -93.2713271}, "transactions": [], "location": {"address1": "121 S 8th St", "address2": null, "address3": "", "city": "Minneapolis", "zip_code": "55402", "country": "US", "state": "MN", "display_address": ["121 S 8th St", "Minneapolis, MN 55402"]}, "phone": "+16123542473", "display_phone": "(612) 354-2473", "distance": 1847.3090079177703}, {"id": "x6PWq_y75gx9AkbF6x-ENA", "alias": "irie-vybz-jamaican-restaurant-brooklyn-center-5", "name": "Irie Vybz Jamaican Restaurant", "image_url": "https://s3-media4.fl.yelpcdn.com/bphoto/uaYgp7A_ozCG2BkNF4q0Sw/o.jpg", "is_closed": false, "url": "https://www.yelp.com/biz/irie-vybz-jamaican-restaurant-brooklyn-center-5?adjust_creative=Qauz7cdm5F8D_pDp7A48cQ&utm_campaign=yelp_api_v3&utm_medium=api_v3_business_search&utm_source=Qauz7cdm5F8D_pDp7A48cQ", "review_count": 34, "categories": [{"alias": "caribbean", "title": "Caribbean"}, {"alias": "buffets", "title": "Buffets"}, {"alias": "cocktailbars", "title": "Cocktail Bars"}], "rating": 4.0, "coordinates": {"latitude": 45.064991, "longitude": -93.307891}, "transactions": ["pickup", "delivery"], "location": {"address1": "6056 Shingle Creek Pkwy", "address2": null, "address3": "", "city": "Brooklyn Center", "zip_code": "55430", "country": "US", "state": "MN", "display_address": ["6056 Shingle Creek Pkwy", "Brooklyn Center, MN 55430"]}, "phone": "+17634961861", "display_phone": "(763) 496-1861", "distance": 11138.62236785681}, {"id": "wkwttEb2GI7hocTs42UzyA", "alias": "peoples-organic-minneapolis", "name": "Peoples Organic", "image_url": "https://s3-media1.fl.yelpcdn.com/bphoto/GOccJhIQaVPDf_S_tZUc9A/o.jpg", "is_closed": false, "url": "https://www.yelp.com/biz/peoples-organic-minneapolis?adjust_creative=Qauz7cdm5F8D_pDp7A48cQ&utm_campaign=yelp_api_v3&utm_medium=api_v3_business_search&utm_source=Qauz7cdm5F8D_pDp7A48cQ", "review_count": 76, "categories": [{"alias": "vegan", "title": "Vegan"}, {"alias": "gluten_free", "title": "Gluten-Free"}], "rating": 3.5, "coordinates": {"latitude": 44.94809, "longitude": -93.298103}, "transactions": ["pickup", "delivery"], "price": "$$", "location": {"address1": "3001 Hennepin Ave", "address2": "", "address3": "", "city": "Minneapolis", "zip_code": "55408", "country": "US", "state": "MN", "display_address": ["3001 Hennepin Ave", "Minneapolis, MN 55408"]}, "phone": "+16122488987", "display_phone": "(612) 248-8987", "distance": 2037.40706656474}, {"id": "C4BpEUEUEYG8y-14tajfzw", "alias": "foxy-falafel-saint-paul", "name": "Foxy Falafel", "image_url": "https://s3-media2.fl.yelpcdn.com/bphoto/L1IHV0w4hUXaB2xs5v8TfA/o.jpg", "is_closed": false, "url": "https://www.yelp.com/biz/foxy-falafel-saint-paul?adjust_creative=Qauz7cdm5F8D_pDp7A48cQ&utm_campaign=yelp_api_v3&utm_medium=api_v3_business_search&utm_source=Qauz7cdm5F8D_pDp7A48cQ", "review_count": 141, "categories": [{"alias": "mideastern", "title": "Middle Eastern"}, {"alias": "vegan", "title": "Vegan"}, {"alias": "gluten_free", "title": "Gluten-Free"}], "rating": 3.5, "coordinates": {"latitude": 44.965217590332, "longitude": -93.1978149414062}, "transactions": ["delivery"], "price": "$$", "location": {"address1": "791 Raymond Ave", "address2": null, "address3": "", "city": "Saint Paul", "zip_code": "55114", "country": "US", "state": "MN", "display_address": ["791 Raymond Ave", "Saint Paul, MN 55114"]}, "phone": "+16518882255", "display_phone": "(651) 888-2255", "distance": 7286.869290430668}, {"id": "Ysv8SsJ40PzqBbbU0tRfHA", "alias": "tea-house-plymouth", "name": "Tea House", "image_url": "https://s3-media4.fl.yelpcdn.com/bphoto/v3g4tkLVsayPijOT0K06_w/o.jpg", "is_closed": false, "url": "https://www.yelp.com/biz/tea-house-plymouth?adjust_creative=Qauz7cdm5F8D_pDp7A48cQ&utm_campaign=yelp_api_v3&utm_medium=api_v3_business_search&utm_source=Qauz7cdm5F8D_pDp7A48cQ", "review_count": 211, "categories": [{"alias": "chinese", "title": "Chinese"}, {"alias": "buffets", "title": "Buffets"}], "rating": 3.0, "coordinates": {"latitude": 44.9789437571851, "longitude": -93.4070691210323}, "transactions": ["pickup", "delivery"], "price": "$$", "location": {"address1": "88 Nathan Ln N", "address2": "", "address3": "", "city": "Plymouth", "zip_code": "55441", "country": "US", "state": "MN", "display_address": ["88 Nathan Ln N", "Plymouth, MN 55441"]}, "phone": "+17635443422", "display_phone": "(763) 544-3422", "distance": 9296.767045493592}, {"id": "jc8lDXcgN9_QZrZEHxvHwQ", "alias": "skyway-masala-st-paul", "name": "Skyway Masala", "image_url": "https://s3-media4.fl.yelpcdn.com/bphoto/tXDqfEfhIuaH13b4dPzpsQ/o.jpg", "is_closed": false, "url": "https://www.yelp.com/biz/skyway-masala-st-paul?adjust_creative=Qauz7cdm5F8D_pDp7A48cQ&utm_campaign=yelp_api_v3&utm_medium=api_v3_business_search&utm_source=Qauz7cdm5F8D_pDp7A48cQ", "review_count": 7, "categories": [{"alias": "halal", "title": "Halal"}, {"alias": "indpak", "title": "Indian"}], "rating": 4.0, "coordinates": {"latitude": 44.94750777413626, "longitude": -93.09388145484178}, "transactions": ["pickup", "delivery"], "location": {"address1": "444 Cedar St", "address2": "Ste 216", "address3": null, "city": "St Paul", "zip_code": "55101", "country": "US", "state": "MN", "display_address": ["444 Cedar St", "Ste 216", "St Paul, MN 55101"]}, "phone": "+13205669759", "display_phone": "(320) 566-9759", "distance": 15593.798509635883}, {"id": "Rd8NDXv5JMaIdbRd1OBeLA", "alias": "gyro-house-rogers-3", "name": "Gyro House", "image_url": "https://s3-media2.fl.yelpcdn.com/bphoto/T4N_dlFO5iapnDQf4EgW0g/o.jpg", "is_closed": false, "url": "https://www.yelp.com/biz/gyro-house-rogers-3?adjust_creative=Qauz7cdm5F8D_pDp7A48cQ&utm_campaign=yelp_api_v3&utm_medium=api_v3_business_search&utm_source=Qauz7cdm5F8D_pDp7A48cQ", "review_count": 37, "categories": [{"alias": "greek", "title": "Greek"}, {"alias": "mediterranean", "title": "Mediterranean"}, {"alias": "halal", "title": "Halal"}], "rating": 4.0, "coordinates": {"latitude": 45.21156, "longitude": -93.55105}, "transactions": ["pickup", "delivery"], "location": {"address1": "14165 James Rd", "address2": "Ste 101", "address3": null, "city": "Rogers", "zip_code": "55374", "country": "US", "state": "MN", "display_address": ["14165 James Rd", "Ste 101", "Rogers, MN 55374"]}, "phone": "+17635951140", "display_phone": "(763) 595-1140", "distance": 34173.98224653075}, {"id": "kv7WFRPzN6KYhN-1cOFxBQ", "alias": "indian-zyka-eagan", "name": "Indian Zyka", "image_url": "", "is_closed": false, "url": "https://www.yelp.com/biz/indian-zyka-eagan?adjust_creative=Qauz7cdm5F8D_pDp7A48cQ&utm_campaign=yelp_api_v3&utm_medium=api_v3_business_search&utm_source=Qauz7cdm5F8D_pDp7A48cQ", "review_count": 1, "categories": [{"alias": "indpak", "title": "Indian"}], "rating": 1.0, "coordinates": {"latitude": 44.81887435913086, "longitude": -93.1672134399414}, "transactions": [], "price": "$$", "location": {"address1": "", "address2": "", "address3": "", "city": "Eagan", "zip_code": "55120", "country": "US", "state": "MN", "display_address": ["Eagan, MN 55120"]}, "phone": "", "display_phone": "", "distance": 15250.414739096854}]